{"Area":{"0":117.06,"1":167.52,"2":310.71,"3":415.9,"4":101.3,"5":219.0,"6":125.42,"7":145.66,"8":210.34,"9":1214.0,"10":223000000.0,"11":348.16824},"Bouroughs":{"0":[],"1":[],"2":[{"Name":"Altstadt-Lehel","Lat":48.1361,"Lon":11.5722},{"Name":"Ludwigsvorstadt-Isarvorstadt","Lat":48.1273,"Lon":11.5648},{"Name":"Maxvorstadt","Lat":48.15,"Lon":11.5694444444},{"Name":"Schwabing-West","Lat":48.1611,"Lon":11.5689},{"Name":"Au-Haidhausen","Lat":48.1319,"Lon":11.5889},{"Name":"Sendling","Lat":48.1213888889,"Lon":11.5413888889},{"Name":"Sendling-Westpark","Lat":48.1222,"Lon":11.5319},{"Name":"Schwanthalerh\u00f6he","Lat":48.1388888889,"Lon":11.5416666667},{"Name":"Neuhausen-Nymphenburg","Lat":48.1569444444,"Lon":11.5166666667},{"Name":"Moosach","Lat":48.1833,"Lon":11.5167},{"Name":"Milbertshofen-Am Hart","Lat":48.1983,"Lon":11.5764},{"Name":"Schwabing-Freimann","Lat":48.1806,"Lon":11.6028},{"Name":"Bogenhausen","Lat":48.1481,"Lon":11.6167},{"Name":"Berg am Laim","Lat":48.1222222222,"Lon":11.6277777778},{"Name":"Trudering-Riem","Lat":48.1167,"Lon":11.6583},{"Name":"Ramersdorf-Perlach","Lat":48.1028,"Lon":11.625},{"Name":"Obergiesing-Fasangarten","Lat":48.1111111111,"Lon":11.5944444444},{"Name":"Untergiesing-Harlaching","Lat":48.0922,"Lon":11.5606},{"Name":"Thalkirchen-Obersendling-Forstenried-F\u00fcrstenried-Solln","Lat":48.0889,"Lon":11.5194},{"Name":"Hadern","Lat":48.1106,"Lon":11.4653},{"Name":"Pasing-Obermenzing","Lat":48.1458,"Lon":11.4597},{"Name":"Aubing-Lochhausen-Langwied","Lat":48.1583333333,"Lon":11.4194444444},{"Name":"Allach-Untermenzing","Lat":48.2,"Lon":11.4528},{"Name":"Feldmoching-Hasenbergl","Lat":48.2111,"Lon":11.5417},{"Name":"Laim","Lat":48.1402777778,"Lon":11.4972222222}],"3":[{"Name":"Municipality 1 Venezia-Murano-Burano","Lat":45.4369444444,"Lon":12.3458333333},{"Name":"Municipality Lido-PellestrinaLido-Pellestrina","Lat":45.41323,"Lon":12.36713},{"Name":"Municipalit\u00e0 di Chirignago-Zelarino","Lat":45.484444,"Lon":12.188611},{"Name":"Municipalit\u00e0 di Favaro Veneto","Lat":45.504444,"Lon":12.281944},{"Name":"Municipalit\u00e0 di Marghera","Lat":45.475833,"Lon":12.224722},{"Name":"Municipalit\u00e0 di Mestre-Carpenedo","Lat":45.493889,"Lon":12.241389}],"4":[{"Name":"Ciutat Vella","Lat":41.3808333333,"Lon":2.1730555556},{"Name":"Eixample","Lat":41.402417,"Lon":2.163444},{"Name":"Sants-Montju\u00efc","Lat":41.3372,"Lon":2.1406},{"Name":"Les Corts","Lat":41.387361,"Lon":2.141806},{"Name":"Sarri\u00e0-Sant Gervasi","Lat":41.39861111,"Lon":2.13111111},{"Name":"Gr\u00e0cia","Lat":41.406667,"Lon":2.158056},{"Name":"Horta-Guinard\u00f3","Lat":41.4130555556,"Lon":2.1663888889},{"Name":"Nou Barris","Lat":41.4413888889,"Lon":2.1719444444},{"Name":"Sant Andreu","Lat":41.436111,"Lon":2.191111},{"Name":"Sant Mart\u00ed","Lat":41.4178638889,"Lon":2.1986805556}],"5":[],"6":[],"7":[{"Name":"Bochum-Mitte (district)","Lat":51.4785,"Lon":7.22278},{"Name":"Wattenscheid","Lat":51.4833333333,"Lon":7.1333333333}],"8":[],"9":[{"Name":"Manhattan","Lat":40.7283333333,"Lon":-73.9941666667},{"Name":"Brooklyn","Lat":40.6927777778,"Lon":-73.9902777778},{"Name":"Queens","Lat":40.7041666667,"Lon":-73.9177777778},{"Name":"The Bronx","Lat":40.84676,"Lon":-73.873207},{"Name":"Staten Island","Lat":40.5762805556,"Lon":-74.1448388889}],"10":[{"Name":"Miyakojima-ku","Lat":34.7012777778,"Lon":135.5280888889},{"Name":"Fukushima-ku","Lat":34.6923555556,"Lon":135.4722305556},{"Name":"Konohana-ku","Lat":34.6830555556,"Lon":135.4522222222},{"Name":"Nishi-ku","Lat":34.6763888889,"Lon":135.4861111111},{"Name":"Minato-ku","Lat":34.6638888889,"Lon":135.4608333333},{"Name":"Taish\u014d-ku","Lat":34.6504027778,"Lon":135.4727},{"Name":"Tenn\u014dji-ku","Lat":34.6577777778,"Lon":135.5194444444},{"Name":"Naniwa-ku","Lat":34.6594444444,"Lon":135.4996305556},{"Name":"Nishiyodogawa-ku","Lat":34.7169444444,"Lon":135.4563888889},{"Name":"Higashiyodogawa-ku","Lat":34.7411111111,"Lon":135.5294444444},{"Name":"Higashinari-ku","Lat":34.67,"Lon":135.5411111111},{"Name":"Ikuno-ku","Lat":34.6527777778,"Lon":135.5394444444},{"Name":"Asahi-ku","Lat":34.7213888889,"Lon":135.5441666667},{"Name":"J\u014dt\u014d-ku","Lat":34.7019444444,"Lon":135.5461111111},{"Name":"Abeno-ku","Lat":34.6389722222,"Lon":135.5184916667},{"Name":"Sumiyoshi-ku","Lat":34.603675,"Lon":135.5006277778},{"Name":"Higashisumiyoshi-ku","Lat":34.6221194444,"Lon":135.5266138889},{"Name":"Nishinari-ku","Lat":34.635,"Lon":135.4944444444},{"Name":"Yodogawa-ku","Lat":34.7211111111,"Lon":135.4866666667},{"Name":"Tsurumi-ku","Lat":34.7041666667,"Lon":135.5741666667},{"Name":"Suminoe-ku","Lat":34.6094444444,"Lon":135.4827777778},{"Name":"Hirano-ku","Lat":34.6211111111,"Lon":135.5461111111},{"Name":"Kita-ku","Lat":34.7055555556,"Lon":135.51},{"Name":"Ch\u016b\u014d-ku","Lat":34.6811111111,"Lon":135.5097222222}],"11":[]},"EntityID":{"0":"Q3138","1":"Q1724","2":"Q1726","3":"Q641","4":"Q1492","5":"Q727","6":"Q1218","7":"Q2103","8":"Q2066","9":"Q60","10":"Q35765","11":"Q23768"},"Image":{"0":"https:\/\/upload.wikimedia.org\/wikipedia\/commons\/e\/ee\/Trier_126x.jpg","1":"https:\/\/upload.wikimedia.org\/wikipedia\/commons\/5\/57\/SB-Rathaus.jpg","2":"https:\/\/upload.wikimedia.org\/wikipedia\/commons\/d\/d3\/Stadtbild_M%C3%BCnchen.jpg","3":"https:\/\/upload.wikimedia.org\/wikipedia\/commons\/f\/f8\/Venice_Old_Town_Lagoon_Aerial_View.jpg","4":"https:\/\/upload.wikimedia.org\/wikipedia\/commons\/0\/0e\/BCN01.JPG","5":"https:\/\/upload.wikimedia.org\/wikipedia\/commons\/7\/74\/AmsterdamLuchtfotoBmz.jpg","6":"https:\/\/upload.wikimedia.org\/wikipedia\/commons\/c\/c2\/Jerusalem_Dome_of_the_rock_BW_14.JPG","7":"https:\/\/upload.wikimedia.org\/wikipedia\/commons\/8\/83\/Bergbaumuseum_Bochum_bei_Nacht.JPG","8":"https:\/\/upload.wikimedia.org\/wikipedia\/commons\/f\/f9\/Essen-S%C3%BCdviertel_Luft.jpg","9":"https:\/\/upload.wikimedia.org\/wikipedia\/commons\/0\/08\/EmpireStateNewYokCity.jpg","10":"https:\/\/upload.wikimedia.org\/wikipedia\/commons\/4\/4b\/Osaka_montage.jpg","11":"https:\/\/upload.wikimedia.org\/wikipedia\/commons\/7\/76\/Las_Vegas_strip.jpg"},"Lat":{"0":49.7566666667,"1":49.2333333333,"2":48.1371944444,"3":45.4397222222,"4":41.3825,"5":52.3833333333,"6":31.7833333333,"7":51.4833333333,"8":51.4508333333,"9":40.67,"10":34.6936111111,"11":36.1691666667},"Lon":{"0":6.6413888889,"1":7.0,"2":11.5755,"3":12.3319444444,"4":2.1769444444,"5":4.9,"6":35.2166666667,"7":7.2166666667,"8":7.0130555556,"9":-73.94,"10":135.5019444444,"11":-115.1447222222},"Name":{"0":"Trier","1":"Saarbr\u00fccken","2":"Munich","3":"Venice","4":"Barcelona","5":"Amsterdam","6":"Jerusalem","7":"Bochum","8":"Essen","9":"New York City","10":"\u014csaka","11":"Las Vegas"},"Population":{"0":100338.0,"1":205336.0,"2":1314865.0,"3":261321.0,"4":1636762.0,"5":860124.0,"6":919438.0,"7":364628.0,"8":677568.0,"9":8398748.0,"10":2665314.0,"11":478434.0},"PopulationDensity":{"0":857.1501793952,"1":1225.7402101242,"2":4231.80779505,"3":628.3265207983,"4":16157.5715695953,"5":3927.5068493151,"6":7330.8722691756,"7":2503.2816147192,"8":3221.2988494818,"9":6918.2438220758,"10":0.0119520807,"11":1374.1460163052}}